%  GPST                      x-ecef(m)      y-ecef(m)      z-ecef(m)   Q  ns   sdx(m)   sdy(m)   sdz(m)  sdxy(m)  sdyz(m)  sdzx(m) age(s)  ratio
2022/07/20 09:57:58.000   4313724.0048    452876.6678   4661080.3986   5  12   3.8756   2.3660   3.5281  -1.6443  -1.3854   2.8930   0.00    0.0
2022/07/20 09:57:59.000   4313724.1751    452876.7986   4661079.9876   5  12   3.8756   2.3660   3.5278  -1.6440  -1.3852   2.8928   0.00    0.0
2022/07/20 09:58:00.000   4313713.0003    452881.8737   4661073.4392   5  13   3.3098   2.1564   3.2723  -0.8590  -0.7969   2.3898   0.00    0.0
2022/07/20 09:58:01.000   4313718.2963    452874.8813   4661079.1385   2  12   2.8167   1.5802   2.4596  -0.7205  -0.6077   2.0977   2.01    0.0
2022/07/20 09:58:02.000   4313717.4436    452874.5240   4661078.3476   2  12   2.1396   1.1720   1.8609  -0.4586  -0.4165   1.5951   2.01    0.0
2022/07/20 09:58:03.000   4313717.1853    452874.4163   4661077.7318   2  12   1.7941   0.9735   1.5570  -0.3518  -0.3332   1.3379   2.01    0.0
2022/07/20 09:58:04.000   4313717.0599    452874.4150   4661077.0498   2  12   1.5753   0.8506   1.3652  -0.2925  -0.2847   1.1750   3.01    0.0
2022/07/20 09:58:05.000   4313717.0528    452874.5492   4661076.1886   2  12   1.4208   0.7648   1.2296  -0.2542  -0.2521   1.0598   2.01    0.0
2022/07/20 09:58:06.000   4313717.0684    452874.6207   4661075.5639   2  12   1.3041   0.7007   1.1272  -0.2272  -0.2283   0.9728   2.01    0.0
2022/07/20 09:58:07.000   4313717.1177    452874.6398   4661075.1071   2  12   1.2120   0.6503   1.0462  -0.2069  -0.2100   0.9041   2.01    0.0
2022/07/20 09:58:08.000   4313717.1646    452874.7432   4661074.3484   2  12   1.1369   0.6094   0.9802  -0.1910  -0.1954   0.8481   3.01    0.0
2022/07/20 09:58:09.000   4313717.2329    452874.7981   4661073.7989   2  12   1.0741   0.5754   0.9252  -0.1781  -0.1833   0.8013   4.01    0.0
2022/07/20 09:58:10.000   4313717.2644    452874.8577   4661073.2737   2  12   1.0203   0.5464   0.8774  -0.1675  -0.1730   0.7612   2.01    0.0
2022/07/20 09:58:11.000   4313717.2850    452874.8802   4661072.9291   2  12   0.9737   0.5214   0.8359  -0.1585  -0.1641   0.7265   2.01    0.0
2022/07/20 09:58:12.000   4313717.3179    452874.8810   4661072.6859   2  12   0.9329   0.4994   0.7993  -0.1508  -0.1563   0.6961   2.01    0.0
2022/07/20 09:58:13.000   4313717.3782    452874.8742   4661072.5202   2  12   0.8967   0.4801   0.7672  -0.1441  -0.1495   0.6691   3.01    0.0
2022/07/20 09:58:14.000   4313717.4452    452874.8592   4661072.3992   2  12   0.8644   0.4628   0.7387  -0.1382  -0.1436   0.6450   4.01    0.0
2022/07/20 09:58:15.000   4313717.5002    452874.8679   4661072.2494   2  11   0.8351   0.4472   0.7119  -0.1327  -0.1380   0.6231   2.01    0.0
2022/07/20 09:58:16.000   4313717.5574    452874.8892   4661072.0705   2  11   0.8086   0.4331   0.6880  -0.1278  -0.1329   0.6033   3.01    0.0
2022/07/20 09:58:17.000   4313717.6040    452874.9090   4661071.9287   2  11   0.7844   0.4202   0.6665  -0.1235  -0.1284   0.5853   4.01    0.0
2022/07/20 09:58:18.000   4313717.6460    452874.8956   4661071.8915   2  11   0.7623   0.4085   0.6469  -0.1195  -0.1244   0.5688   5.01    0.0
2022/07/20 09:58:19.000   4313717.5316    452874.7797   4661071.7843   2  12   0.7410   0.3970   0.6277  -0.1199  -0.1249   0.5521   6.01    0.0
2022/07/20 09:58:20.000   4313717.5511    452874.7309   4661071.8347   2  12   0.7220   0.3869   0.6110  -0.1173  -0.1223   0.5377   7.01    0.0
2022/07/20 09:58:21.000   4313717.5693    452874.6932   4661071.8802   2  12   0.7044   0.3776   0.5956  -0.1149  -0.1199   0.5244   8.01    0.0
2022/07/20 09:58:22.000   4313717.5890    452874.6684   4661071.9076   2  12   0.6881   0.3689   0.5814  -0.1127  -0.1177   0.5120   9.01    0.0
2022/07/20 09:58:23.000   4313717.6047    452874.6267   4661072.0004   2  12   0.6728   0.3608   0.5681  -0.1106  -0.1156   0.5005  10.01    0.0
2022/07/20 09:58:24.000   4313717.6139    452874.6000   4661071.8598   2  12   0.6571   0.3527   0.5521  -0.1082  -0.1124   0.4889   2.01    0.0
2022/07/20 09:58:25.000   4313717.6124    452874.5704   4661071.7343   2  11   0.6427   0.3453   0.5373  -0.1060  -0.1094   0.4782   2.01    0.0
2022/07/20 09:58:26.000   4313717.6030    452874.5433   4661071.6074   2  11   0.6291   0.3383   0.5236  -0.1040  -0.1066   0.4681   2.01    0.0
2022/07/20 09:58:27.000   4313717.5915    452874.5029   4661071.5643   2  11   0.6164   0.3317   0.5113  -0.1021  -0.1042   0.4587   3.01    0.0
2022/07/20 09:58:28.000   4313717.4930    452874.5871   4661071.1510   2  12   0.5992   0.3244   0.4989  -0.0888  -0.0984   0.4462   2.01    1.2
2022/07/20 09:58:29.000   4313717.4522    452874.6444   4661070.7992   2  12   0.5849   0.3181   0.4875  -0.0805  -0.0949   0.4356   2.01    1.3
2022/07/20 09:58:30.000   4313717.3985    452874.7124   4661070.4029   2  12   0.5716   0.3121   0.4768  -0.0727  -0.0917   0.4257   2.01    1.0
2022/07/20 09:58:31.000   4313717.3562    452874.7774   4661070.0632   2  12   0.5591   0.3065   0.4666  -0.0652  -0.0887   0.4164   2.01    1.1
2022/07/20 09:58:32.000   4313717.2977    452874.8343   4661069.7494   2  12   0.5474   0.3012   0.4573  -0.0580  -0.0861   0.4077   3.01    1.1
2022/07/20 09:58:33.000   4313717.2551    452874.8961   4661069.3912   2  12   0.5362   0.2960   0.4479  -0.0510  -0.0834   0.3994   2.01    1.1
2022/07/20 09:58:34.000   4313717.1963    452874.9607   4661069.0820   2  12   0.5257   0.2912   0.4389  -0.0440  -0.0809   0.3916   2.01    1.2
2022/07/20 09:58:35.000   4313717.1578    452875.0208   4661068.7593   2  12   0.5156   0.2865   0.4302  -0.0369  -0.0784   0.3841   2.01    1.0
2022/07/20 09:58:36.000   4313717.1145    452875.0812   4661068.5015   2  12   0.5062   0.2821   0.4224  -0.0292  -0.0763   0.3771   3.01    1.1
2022/07/20 09:58:37.000   4313717.0722    452875.1311   4661068.3360   2  12   0.4974   0.2780   0.4154  -0.0204  -0.0746   0.3705   4.01    1.2
2022/07/20 09:58:38.000   4313717.0604    452875.1825   4661068.1901   2  11   0.4886   0.2739   0.4087  -0.0079  -0.0734   0.3641   2.01    1.1
2022/07/20 09:58:39.000   4313717.0446    452875.2361   4661068.0717   2  11   0.4803   0.2699   0.4016   0.0159  -0.0717   0.3581   2.01    1.2
2022/07/20 09:58:40.000   4313717.0026    452875.2782   4661067.9479   2  12   0.4722   0.2661   0.3947   0.0224  -0.0700   0.3523   2.01    1.3
2022/07/20 09:58:41.000   4313716.9733    452875.3015   4661067.9202   2  10   0.4648   0.2628   0.3894   0.0288  -0.0707   0.3466   3.01    1.4
2022/07/20 09:58:42.000   4313716.9233    452875.3249   4661067.8154   2  12   0.4573   0.2594   0.3826   0.0331  -0.0694   0.3410   2.01    1.3
2022/07/20 09:58:43.000   4313716.8282    452875.1195   4661069.5110   2  12   0.4502   0.2562   0.3760   0.0369  -0.0680   0.3357   2.01    1.1
2022/07/20 09:58:44.000   4313716.8188    452875.1816   4661068.8966   2  12   0.4434   0.2531   0.3699   0.0396  -0.0671   0.3306   2.01    1.1
2022/07/20 09:58:45.000   4313716.8134    452875.2124   4661068.5863   2  12   0.4369   0.2501   0.3640   0.0419  -0.0662   0.3258   2.01    1.0
2022/07/20 09:58:46.000   4313716.7728    452875.2319   4661068.4096   2  12   0.4307   0.2473   0.3587   0.0439  -0.0654   0.3211   3.01    1.2
2022/07/20 09:58:47.000   4313716.7623    452875.2435   4661068.2416   2  12   0.4246   0.2444   0.3531   0.0454  -0.0646   0.3166   2.01    1.3
2022/07/20 09:58:48.000   4313716.7589    452875.2522   4661068.1135   2  12   0.4186   0.2416   0.3479   0.0456  -0.0645   0.3122   2.01    1.2
2022/07/20 09:58:49.000   4313716.7139    452875.3421   4661067.2673   2  11   0.4129   0.2390   0.3435   0.0467  -0.0644   0.3081   2.01    1.1
2022/07/20 09:58:50.000   4313716.6956    452875.3609   4661067.2705   2  11   0.4076   0.2365   0.3390   0.0478  -0.0639   0.3041   3.01    1.0
2022/07/20 09:58:51.000   4313716.6721    452875.3771   4661067.2727   2  11   0.4025   0.2341   0.3351   0.0487  -0.0636   0.3004   4.01    1.0
2022/07/20 09:58:52.000   4313716.6746    452875.4071   4661067.2120   2  11   0.3972   0.2316   0.3301   0.0492  -0.0628   0.2966   2.01    1.1
2022/07/20 09:58:53.000   4313716.6703    452875.4322   4661067.1074   2  11   0.3921   0.2293   0.3255   0.0497  -0.0622   0.2929   2.01    1.2
2022/07/20 09:58:54.000   4313716.6487    452875.4527   4661066.9785   2  12   0.3871   0.2270   0.3209   0.0500  -0.0617   0.2893   2.01    1.1
2022/07/20 09:58:55.000   4313716.8412    452875.8201   4661064.4614   2  12   0.3824   0.2247   0.3166   0.0498  -0.0613   0.2857   3.01    1.1
2022/07/20 09:58:56.000   4313716.8184    452875.7863   4661065.0529   2  12   0.3776   0.2225   0.3121   0.0500  -0.0606   0.2823   2.01    1.2
2022/07/20 09:58:57.000   4313716.7624    452875.6268   4661066.3592   2  11   0.3730   0.2204   0.3082   0.0502  -0.0603   0.2789   2.01    1.2
2022/07/20 09:58:58.000   4313716.7361    452875.7145   4661066.1536   2  12   0.3682   0.2174   0.3035   0.0535  -0.0570   0.2751   2.01    1.2
2022/07/20 09:58:59.000   4313716.7251    452875.7898   4661065.9412   2  12   0.3635   0.2148   0.2990   0.0559  -0.0539   0.2715   2.01    1.7
2022/07/20 09:59:00.000   4313716.7083    452875.8525   4661065.7686   2  12   0.3591   0.2123   0.2950   0.0580  -0.0512   0.2681   3.01    1.3
2022/07/20 09:59:01.000   4313716.6974    452875.9111   4661065.5795   2  12   0.3546   0.2098   0.2906   0.0596  -0.0485   0.2647   2.01    1.2
2022/07/20 09:59:02.000   4313716.7067    452875.9705   4661065.3781   2  12   0.3502   0.2074   0.2865   0.0610  -0.0460   0.2614   2.01    1.4
2022/07/20 09:59:03.000   4313716.6800    452876.0028   4661065.2260   2  12   0.3459   0.2050   0.2823   0.0621  -0.0432   0.2582   2.01    1.2
2022/07/20 09:59:04.000   4313716.6302    452876.0175   4661065.1297   2  12   0.3420   0.2028   0.2786   0.0632  -0.0407   0.2552   3.01    1.0
2022/07/20 09:59:05.000   4313716.5869    452876.0320   4661065.0472   2  12   0.3382   0.2007   0.2754   0.0641  -0.0383   0.2523   4.01    1.1
2022/07/20 09:59:06.000   4313716.5163    452876.0429   4661064.9452   2  13   0.3340   0.1985   0.2713   0.0646  -0.0358   0.2494   2.01    1.1
2022/07/20 09:59:07.000   4313716.4796    452876.0483   4661064.8406   2  13   0.3301   0.1964   0.2673   0.0651  -0.0333   0.2465   2.01    1.2
2022/07/20 09:59:08.000   4313716.4387    452876.0610   4661064.7306   2  14   0.3262   0.1944   0.2635   0.0654  -0.0310   0.2437   2.01    1.1
2022/07/20 09:59:09.000   4313716.3237    452876.0708   4661065.3372   2  14   0.3226   0.1925   0.2601   0.0658  -0.0287   0.2410   3.01    1.1
2022/07/20 09:59:10.000   4313716.3473    452876.0816   4661064.6302   2  14   0.3193   0.1906   0.2572   0.0661  -0.0266   0.2384   4.01    1.0
2022/07/20 09:59:11.000   4313716.2996    452876.0846   4661064.6076   2  13   0.3161   0.1889   0.2550   0.0665  -0.0248   0.2359   5.01    1.3
2022/07/20 09:59:12.000   4313716.1294    452876.0647   4661065.3765   2  13   0.3132   0.1872   0.2525   0.0669  -0.0229   0.2336   6.01    1.2
2022/07/20 09:59:13.000   4313716.0918    452876.0725   4661065.5361   2  13   0.3105   0.1856   0.2502   0.0673  -0.0210   0.2314   7.01    1.2
2022/07/20 09:59:14.000   4313716.2641    452876.1408   4661064.5422   2  12   0.3079   0.1841   0.2488   0.0677  -0.0196   0.2291   8.01    1.1
2022/07/20 09:59:15.000   4313716.2484    452876.1593   4661064.5042   2  12   0.3054   0.1826   0.2471   0.0681  -0.0179   0.2271   9.01    1.2
2022/07/20 09:59:16.000   4313716.2354    452876.1772   4661064.4747   2  12   0.3030   0.1811   0.2454   0.0684  -0.0161   0.2251  10.01    1.0
2022/07/20 09:59:17.000   4313716.2205    452876.1956   4661064.4280   2  12   0.3008   0.1797   0.2439   0.0687  -0.0143   0.2232  11.01    1.2
2022/07/20 09:59:18.000   4313716.2043    452876.2128   4661064.3991   2  12   0.2986   0.1784   0.2425   0.0690  -0.0124   0.2214  12.01    1.2
2022/07/20 09:59:19.000   4313716.1832    452876.2327   4661064.4026   2  11   0.2965   0.1771   0.2420   0.0693  -0.0079   0.2197  13.01    1.1
2022/07/20 09:59:20.000   4313716.2197    452876.2739   4661064.1663   2  11   0.2921   0.1752   0.2361   0.0682  -0.0068   0.2170   2.01    1.1
2022/07/20 09:59:21.000   4313716.2494    452876.3010   4661063.9348   2  11   0.2885   0.1736   0.2325   0.0674  -0.0056   0.2144   2.01    1.0
2022/07/20 09:59:22.000   4313716.2789    452876.3250   4661063.7123   2  11   0.2849   0.1720   0.2290   0.0666  -0.0044   0.2118   2.01    1.1
2022/07/20 09:59:23.000   4313716.3081    452876.3527   4661063.5305   2  12   0.2816   0.1705   0.2260   0.0658  -0.0046   0.2093   3.01    1.2
2022/07/20 09:59:24.000   4313716.3240    452876.3816   4661063.3050   2  13   0.2782   0.1690   0.2226   0.0649  -0.0051   0.2069   2.01    1.3
2022/07/20 09:59:25.000   4313716.4118    452876.4284   4661062.4553   2  13   0.2748   0.1675   0.2192   0.0639  -0.0059   0.2045   2.01    1.0
2022/07/20 09:59:26.000   4313716.3808    452876.4537   4661062.4029   2  13   0.2716   0.1661   0.2161   0.0630  -0.0061   0.2021   2.01    1.0
2022/07/20 09:59:27.000   4313716.2950    452876.4411   4661062.6557   2  12   0.2687   0.1648   0.2137   0.0623  -0.0060   0.1999   3.01    1.1
2022/07/20 09:59:28.000   4313716.2666    452876.4424   4661062.5428   2  12   0.2661   0.1635   0.2115   0.0618  -0.0054   0.1980   4.01    1.1
2022/07/20 09:59:29.000   4313716.2760    452876.4573   4661062.4284   2  11   0.2629   0.1622   0.2084   0.0608  -0.0058   0.1957   2.01    1.1
2022/07/20 09:59:30.000   4313716.2766    452876.4634   4661062.2793   2  11   0.2599   0.1608   0.2056   0.0598  -0.0062   0.1936   2.01    1.5
2022/07/20 09:59:31.000   4313716.2609    452876.4638   4661062.1363   2  11   0.2569   0.1595   0.2028   0.0589  -0.0068   0.1914   2.01    1.5
2022/07/20 09:59:32.000   4313716.2372    452876.4596   4661062.0444   2  11   0.2542   0.1583   0.2006   0.0582  -0.0070   0.1895   3.01    1.5
2022/07/20 09:59:33.000   4313716.2028    452876.4569   4661061.9155   2  11   0.2513   0.1571   0.1978   0.0572  -0.0080   0.1874   2.01    1.4
2022/07/20 09:59:34.000   4313716.1856    452876.4553   4661061.8292   2  11   0.2485   0.1558   0.1953   0.0562  -0.0088   0.1854   2.01    1.3
2022/07/20 09:59:35.000   4313716.1436    452876.4518   4661061.7642   2  12   0.2460   0.1547   0.1931   0.0555  -0.0092   0.1835   3.01    1.1
2022/07/20 09:59:36.000   4313716.1156    452876.4472   4661061.7085   2  12   0.2437   0.1536   0.1910   0.0549  -0.0092   0.1818   4.01    1.1
2022/07/20 09:59:37.000   4313716.0900    452876.4447   4661061.6722   2  12   0.2417   0.1526   0.1893   0.0545  -0.0091   0.1803   5.01    1.2
2022/07/20 09:59:38.000   4313716.0913    452876.4584   4661061.5723   2  12   0.2388   0.1514   0.1866   0.0534  -0.0104   0.1782   2.01    1.3
2022/07/20 09:59:39.000   4313716.1107    452876.4748   4661061.4446   2  11   0.2362   0.1503   0.1846   0.0524  -0.0119   0.1763   2.01    1.1
2022/07/20 09:59:40.000   4313716.1365    452876.4929   4661061.3280   2  11   0.2336   0.1491   0.1823   0.0515  -0.0129   0.1743   2.01    1.2
2022/07/20 09:59:41.000   4313716.1608    452876.5064   4661061.2484   2  11   0.2313   0.1481   0.1805   0.0507  -0.0135   0.1726   3.01    1.2
2022/07/20 09:59:42.000   4313716.1755    452876.5199   4661061.1848   2  11   0.2292   0.1471   0.1789   0.0501  -0.0140   0.1710   4.01    1.2
2022/07/20 09:59:43.000   4313716.1990    452876.5434   4661061.0619   2  11   0.2266   0.1460   0.1765   0.0490  -0.0151   0.1691   2.01    1.2
2022/07/20 09:59:44.000   4313716.2073    452876.5459   4661060.9930   2  11   0.2241   0.1450   0.1743   0.0480  -0.0158   0.1674   2.01    1.3
2022/07/20 09:59:45.000   4313716.2015    452876.5452   4661060.9495   2  11   0.2219   0.1440   0.1726   0.0472  -0.0163   0.1657   3.01    1.3
2022/07/20 09:59:46.000   4313716.1823    452876.5444   4661060.9197   2  12   0.2200   0.1431   0.1712   0.0466  -0.0166   0.1642   4.01    1.0
2022/07/20 09:59:47.000   4313716.1698    452876.5368   4661060.8940   2  12   0.2183   0.1422   0.1695   0.0461  -0.0167   0.1630   5.01    1.0
2022/07/20 09:59:48.000   4313716.1502    452876.5338   4661060.8760   2  12   0.2167   0.1414   0.1683   0.0457  -0.0166   0.1618   6.01    1.1
2022/07/20 09:59:49.000   4313716.1348    452876.5282   4661060.8725   2  12   0.2153   0.1407   0.1672   0.0455  -0.0166   0.1607   7.01    1.0
2022/07/20 09:59:50.000   4313716.1209    452876.5225   4661060.8639   2  12   0.2140   0.1400   0.1663   0.0453  -0.0164   0.1596   8.01    1.0
2022/07/20 09:59:51.000   4313716.1024    452876.5175   4661060.8721   2  12   0.2129   0.1393   0.1655   0.0451  -0.0162   0.1587   9.01    1.3
2022/07/20 09:59:52.000   4313716.1249    452876.5361   4661060.7967   2  12   0.2100   0.1381   0.1625   0.0437  -0.0176   0.1566   2.01    1.0
2022/07/20 09:59:53.000   4313716.1345    452876.5464   4661060.7233   2  12   0.2076   0.1371   0.1604   0.0424  -0.0185   0.1549   2.01    1.0
2022/07/20 09:59:54.000   4313716.1530    452876.5561   4661060.6089   2  12   0.2052   0.1362   0.1585   0.0412  -0.0193   0.1532   2.01    1.3
2022/07/20 09:59:55.000   4313716.1546    452876.5620   4661060.5542   2  12   0.2032   0.1353   0.1568   0.0402  -0.0199   0.1517   3.01    1.0
2022/07/20 09:59:56.000   4313716.1444    452876.5674   4661060.5071   2  12   0.2014   0.1345   0.1554   0.0394  -0.0203   0.1503   4.01    1.2
2022/07/20 09:59:57.000   4313716.1261    452876.5718   4661060.4684   2  12   0.1998   0.1337   0.1542   0.0388  -0.0206   0.1491   5.01    1.1
2022/07/20 09:59:58.000   4313716.1340    452876.5995   4661060.4640   2  13   0.1984   0.1330   0.1531   0.0383  -0.0209   0.1480   6.01    1.1
2022/07/20 09:59:59.000   4313716.1194    452876.6085   4661060.4669   2  13   0.1971   0.1323   0.1522   0.0378  -0.0212   0.1469   7.01    1.1
2022/07/20 10:00:00.000   4313716.1089    452876.6198   4661060.4405   2  13   0.1960   0.1317   0.1514   0.0375  -0.0214   0.1460   8.01    1.5
2022/07/20 10:00:01.000   4313716.1300    452876.6484   4661060.3609   2  13   0.1933   0.1306   0.1488   0.0359  -0.0223   0.1441   2.01    1.1
2022/07/20 10:00:02.000   4313716.1512    452876.6691   4661060.2867   2  13   0.1911   0.1297   0.1469   0.0345  -0.0231   0.1425   2.01    1.0
2022/07/20 10:00:03.000   4313716.1689    452876.6904   4661060.2210   2  13   0.1889   0.1288   0.1451   0.0330  -0.0238   0.1409   2.01    1.2
2022/07/20 10:00:04.000   4313716.1865    452876.7143   4661060.1549   2  13   0.1867   0.1279   0.1434   0.0316  -0.0244   0.1393   2.01    1.7
2022/07/20 10:00:05.000   4313716.1876    452876.7335   4661060.0692   2  13   0.1849   0.1272   0.1419   0.0304  -0.0249   0.1380   3.01    1.3
2022/07/20 10:00:06.000   4313716.1923    452876.7592   4661059.9877   2  13   0.1828   0.1263   0.1401   0.0290  -0.0255   0.1364   2.01    1.5
2022/07/20 10:00:07.000   4313716.1988    452876.7818   4661059.9179   2  13   0.1808   0.1255   0.1385   0.0275  -0.0260   0.1350   2.01    1.2
2022/07/20 10:00:08.000   4313716.2146    452876.8054   4661059.8342   2  13   0.1788   0.1247   0.1369   0.0261  -0.0265   0.1335   2.01    1.6
2022/07/20 10:00:09.000   4313716.2306    452876.8321   4661059.7686   2  13   0.1771   0.1239   0.1356   0.0249  -0.0268   0.1322   3.01    1.7
2022/07/20 10:00:10.000   4313716.2469    452876.8548   4661059.7380   2  12   0.1757   0.1233   0.1352   0.0241  -0.0274   0.1310   4.01    2.7
2022/07/20 10:00:11.000   4313716.2686    452876.8872   4661059.6460   2  12   0.1737   0.1224   0.1335   0.0225  -0.0279   0.1296   2.01    2.7
2022/07/20 10:00:12.000   4313716.2838    452876.9187   4661059.5694   2  11   0.1719   0.1217   0.1323   0.0209  -0.0283   0.1284   2.01    2.4
2022/07/20 10:00:13.000   4313716.2909    452876.9538   4661059.4764   2  11   0.1701   0.1209   0.1309   0.0193  -0.0287   0.1270   2.01    2.2
2022/07/20 10:00:14.000   4313716.2938    452876.9832   4661059.4090   2  11   0.1685   0.1202   0.1299   0.0180  -0.0289   0.1259   3.01    2.1
2022/07/20 10:00:15.000   4313716.3089    452877.0121   4661059.3318   2  11   0.1667   0.1195   0.1283   0.0161  -0.0294   0.1246   2.01    1.9
2022/07/20 10:00:16.000   4313716.3238    452877.0389   4661059.2715   2  11   0.1650   0.1187   0.1270   0.0141  -0.0297   0.1233   2.01    1.7
2022/07/20 10:00:17.000   4313716.3271    452877.0697   4661059.1952   2  11   0.1634   0.1180   0.1257   0.0119  -0.0300   0.1221   2.01    1.5
2022/07/20 10:00:18.000   4313716.3251    452877.1013   4661059.1332   2  11   0.1620   0.1174   0.1248   0.0101  -0.0302   0.1210   3.01    1.4
2022/07/20 10:00:19.000   4313716.3170    452877.1311   4661059.0760   2  11   0.1607   0.1168   0.1240   0.0084  -0.0304   0.1201   4.01    1.3
2022/07/20 10:00:20.000   4313716.3225    452877.1723   4661058.9789   2  11   0.1590   0.1161   0.1223   0.0035  -0.0308   0.1188   2.01    1.2
2022/07/20 10:00:21.000   4313716.3271    452877.2131   4661058.9323   2  11   0.1574   0.1154   0.1211  -0.0062  -0.0310   0.1177   2.01    1.0
2022/07/20 10:00:22.000   4313716.3306    452877.2511   4661058.8652   2  11   0.1559   0.1147   0.1199  -0.0094  -0.0313   0.1165   2.01    1.1
2022/07/20 10:00:23.000   4313716.3284    452877.2846   4661058.8142   2  11   0.1546   0.1141   0.1191  -0.0111  -0.0315   0.1155   3.01    1.1
2022/07/20 10:00:24.000   4313716.3223    452877.3178   4661058.7564   2  11   0.1535   0.1135   0.1184  -0.0122  -0.0315   0.1147   4.01    1.0
2022/07/20 10:00:25.000   4313716.3260    452877.3581   4661058.6779   2  11   0.1518   0.1128   0.1168  -0.0141  -0.0319   0.1135   2.01    1.0
2022/07/20 10:00:26.000   4313716.3238    452877.3949   4661058.6170   2  11   0.1504   0.1122   0.1157  -0.0155  -0.0321   0.1124   2.01    1.0
2022/07/20 10:00:27.000   4313716.3181    452877.4314   4661058.5488   2  11   0.1489   0.1116   0.1146  -0.0169  -0.0323   0.1114   2.01    1.0
2022/07/20 10:00:28.000   4313716.3133    452877.4675   4661058.4908   2  11   0.1477   0.1110   0.1139  -0.0177  -0.0324   0.1104   3.01    1.0
2022/07/20 10:00:29.000   4313716.3061    452877.4982   4661058.4315   2  11   0.1463   0.1103   0.1126  -0.0189  -0.0327   0.1094   2.01    1.0
2022/07/20 10:00:30.000   4313716.3063    452877.5314   4661058.3732   2  11   0.1449   0.1097   0.1115  -0.0198  -0.0328   0.1084   2.01    1.1
2022/07/20 10:00:31.000   4313716.3104    452877.5648   4661058.3215   2  11   0.1436   0.1091   0.1105  -0.0208  -0.0330   0.1074   2.01    1.1
2022/07/20 10:00:32.000   4313716.3093    452877.5980   4661058.2793   2  11   0.1424   0.1086   0.1098  -0.0214  -0.0331   0.1065   3.01    1.1
2022/07/20 10:00:33.000   4313716.3078    452877.6290   4661058.2352   2  11   0.1415   0.1081   0.1094  -0.0217  -0.0331   0.1058   4.01    1.1
2022/07/20 10:00:34.000   4313716.3042    452877.6585   4661058.2006   2  11   0.1407   0.1076   0.1091  -0.0220  -0.0331   0.1051   5.01    1.1
2022/07/20 10:00:35.000   4313716.3001    452877.6881   4661058.1774   2  11   0.1400   0.1072   0.1089  -0.0221  -0.0330   0.1045   6.01    1.1
2022/07/20 10:00:36.000   4313716.2943    452877.7113   4661058.1652   2  11   0.1393   0.1069   0.1088  -0.0221  -0.0330   0.1040   7.01    1.1
2022/07/20 10:00:37.000   4313716.2868    452877.7349   4661058.1560   2  11   0.1388   0.1065   0.1089  -0.0220  -0.0329   0.1035   8.01    1.1
2022/07/20 10:00:38.000   4313716.2830    452877.7650   4661058.1336   2  11   0.1384   0.1062   0.1091  -0.0218  -0.0328   0.1031   9.01    1.1
2022/07/20 10:00:39.000   4313716.2875    452877.7987   4661058.0872   2  11   0.1364   0.1054   0.1052  -0.0231  -0.0333   0.1019   2.01    1.1
2022/07/20 10:00:40.000   4313716.2937    452877.8268   4661058.0300   2  11   0.1351   0.1048   0.1042  -0.0239  -0.0334   0.1009   2.01    1.2
2022/07/20 10:00:41.000   4313716.2924    452877.8568   4661057.9866   2  11   0.1338   0.1042   0.1032  -0.0246  -0.0336   0.1000   2.01    1.2
2022/07/20 10:00:42.000   4313716.2875    452877.8803   4661057.9592   2  11   0.1328   0.1037   0.1027  -0.0251  -0.0336   0.0992   3.01    1.2
2022/07/20 10:00:43.000   4313716.2795    452877.9064   4661057.9190   2  11   0.1319   0.1033   0.1023  -0.0254  -0.0337   0.0985   4.01    1.2
2022/07/20 10:00:44.000   4313716.2790    452877.9341   4661057.8927   2  11   0.1311   0.1029   0.1020  -0.0256  -0.0336   0.0979   5.01    1.2
2022/07/20 10:00:45.000   4313716.2759    452877.9602   4661057.8658   2  11   0.1305   0.1025   0.1019  -0.0256  -0.0336   0.0973   6.01    1.2
2022/07/20 10:00:46.000   4313716.2730    452877.9861   4661057.8441   2  11   0.1299   0.1022   0.1020  -0.0256  -0.0335   0.0969   7.01    1.2
2022/07/20 10:00:47.000   4313716.2675    452878.0054   4661057.8331   2  11   0.1295   0.1019   0.1021  -0.0255  -0.0334   0.0964   8.01    1.2
2022/07/20 10:00:48.000   4313716.2648    452878.0342   4661057.8042   2  11   0.1291   0.1016   0.1024  -0.0254  -0.0333   0.0961   9.01    1.2
2022/07/20 10:00:49.000   4313716.2504    452878.0554   4661057.7949   2  11   0.1288   0.1013   0.1027  -0.0253  -0.0333   0.0957  10.01    1.2
2022/07/20 10:00:50.000   4313716.2433    452878.0814   4661057.7811   2  12   0.1285   0.1011   0.1031  -0.0251  -0.0332   0.0954  11.01    1.2
2022/07/20 10:00:51.000   4313716.2314    452878.1043   4661057.7773   2  13   0.1282   0.1008   0.1015  -0.0249  -0.0329   0.0954  12.01    1.2
2022/07/20 10:00:52.000   4313716.2421    452878.1350   4661057.7353   2  13   0.1258   0.0998   0.0970  -0.0262  -0.0335   0.0938   2.01    1.1
2022/07/20 10:00:53.000   4313716.2495    452878.1771   4661057.6749   2  13   0.1248   0.0995   0.0957  -0.0258  -0.0338   0.0928   2.01    1.0
2022/07/20 10:00:54.000   4313716.2487    452878.2063   4661057.6484   2  13   0.1240   0.0990   0.0947  -0.0256  -0.0336   0.0921   2.01    1.1
2022/07/20 10:00:55.000   4313716.2583    452878.2366   4661057.6115   2  13   0.1232   0.0985   0.0937  -0.0255  -0.0334   0.0915   2.01    1.1
2022/07/20 10:00:56.000   4313716.2659    452878.2621   4661057.5908   2  13   0.1226   0.0981   0.0942  -0.0252  -0.0334   0.0908   3.01    1.0
2022/07/20 10:00:57.000   4313716.2803    452878.2852   4661057.5781   2  13   0.1217   0.0976   0.0926  -0.0251  -0.0332   0.0903   2.01    1.0
2022/07/20 10:00:58.000   4313716.2963    452878.3086   4661057.5469   2  13   0.1210   0.0972   0.0917  -0.0250  -0.0329   0.0898   2.01    1.2
2022/07/20 10:00:59.000   4313716.3095    452878.3340   4661057.5358   2  13   0.1203   0.0967   0.0909  -0.0249  -0.0327   0.0893   2.01    1.1
2022/07/20 10:01:00.000   4313716.3196    452878.3582   4661057.5264   2  12   0.1197   0.0963   0.0908  -0.0246  -0.0325   0.0888   3.01    1.1
2022/07/20 10:01:01.000   4313716.3234    452878.3869   4661057.5120   2  12   0.1192   0.0960   0.0904  -0.0244  -0.0323   0.0884   4.01    1.1
2022/07/20 10:01:02.000   4313716.3388    452878.4133   4661057.4989   2  13   0.1183   0.0955   0.0895  -0.0244  -0.0322   0.0879   2.01    1.1
2022/07/20 10:01:03.000   4313716.3504    452878.4385   4661057.4777   2  13   0.1176   0.0950   0.0885  -0.0243  -0.0320   0.0874   2.01    1.1
2022/07/20 10:01:04.000   4313716.3679    452878.4617   4661057.4667   2  13   0.1169   0.0946   0.0878  -0.0242  -0.0318   0.0870   2.01    1.1
2022/07/20 10:01:05.000   4313716.3790    452878.4834   4661057.4395   2  13   0.1164   0.0942   0.0873  -0.0240  -0.0315   0.0866   3.01    1.1
2022/07/20 10:01:06.000   4313716.3901    452878.4956   4661057.4329   2  13   0.1156   0.0938   0.0865  -0.0240  -0.0314   0.0861   2.01    1.0
2022/07/20 10:01:07.000   4313716.4048    452878.5073   4661057.4338   2  12   0.1149   0.0933   0.0864  -0.0239  -0.0313   0.0855   2.01    1.1
2022/07/20 10:01:08.000   4313716.4212    452878.5103   4661057.4233   2  12   0.1143   0.0929   0.0858  -0.0238  -0.0311   0.0850   2.01    1.1
2022/07/20 10:01:09.000   4313716.4356    452878.5141   4661057.4202   2  12   0.1137   0.0926   0.0854  -0.0236  -0.0309   0.0846   3.01    1.1
2022/07/20 10:01:10.000   4313716.4504    452878.5203   4661057.4256   2  12   0.1133   0.0922   0.0851  -0.0233  -0.0307   0.0843   4.01    1.0
2022/07/20 10:01:11.000   4313716.4655    452878.5237   4661057.4157   2  13   0.1125   0.0918   0.0843  -0.0235  -0.0306   0.0837   2.01    1.0
2022/07/20 10:01:12.000   4313716.4672    452878.5131   4661057.3927   2  13   0.1118   0.0914   0.0834  -0.0234  -0.0304   0.0833   2.01    1.1
2022/07/20 10:01:13.000   4313716.4870    452878.5142   4661057.3921   2  13   0.1111   0.0910   0.0828  -0.0233  -0.0303   0.0829   2.01    1.0
2022/07/20 10:01:14.000   4313716.4971    452878.5163   4661057.3832   2  14   0.1106   0.0906   0.0824  -0.0231  -0.0301   0.0825   3.01    1.0
2022/07/20 10:01:15.000   4313716.5038    452878.5161   4661057.3709   2  14   0.1102   0.0903   0.0819  -0.0229  -0.0299   0.0822   4.01    1.1
2022/07/20 10:01:16.000   4313716.5180    452878.5193   4661057.3671   2  14   0.1094   0.0899   0.0811  -0.0231  -0.0298   0.0817   2.01    1.0
2022/07/20 10:01:17.000   4313716.5312    452878.5198   4661057.3508   2  14   0.1088   0.0895   0.0805  -0.0230  -0.0297   0.0812   2.01    1.1
2022/07/20 10:01:18.000   4313716.5432    452878.5166   4661057.3434   2  14   0.1081   0.0891   0.0800  -0.0230  -0.0295   0.0808   2.01    1.5
2022/07/20 10:01:19.000   4313716.5581    452878.5159   4661057.3324   2  13   0.1077   0.0888   0.0803  -0.0228  -0.0295   0.0803   3.01    1.1
2022/07/20 10:01:20.000   4313716.5749    452878.5174   4661057.3182   2  13   0.1070   0.0884   0.0794  -0.0228  -0.0293   0.0799   2.01    1.0
2022/07/20 10:01:21.000   4313716.5859    452878.5131   4661057.3117   2  14   0.1063   0.0880   0.0787  -0.0227  -0.0292   0.0795   2.01    1.1
2022/07/20 10:01:22.000   4313716.6017    452878.5112   4661057.3098   2  14   0.1057   0.0876   0.0781  -0.0227  -0.0291   0.0791   2.01    1.5
2022/07/20 10:01:23.000   4313716.6160    452878.5073   4661057.3054   2  14   0.1053   0.0873   0.0777  -0.0226  -0.0289   0.0787   3.01    1.0
2022/07/20 10:01:24.000   4313716.6253    452878.5007   4661057.2977   2  14   0.1049   0.0870   0.0774  -0.0224  -0.0287   0.0785   4.01    1.2
2022/07/20 10:01:25.000   4313716.6382    452878.4966   4661057.2882   2  14   0.1041   0.0866   0.0769  -0.0225  -0.0287   0.0779   2.01    1.2
2022/07/20 10:01:26.000   4313716.6445    452878.4894   4661057.2805   2  14   0.1035   0.0862   0.0764  -0.0225  -0.0285   0.0775   2.01    1.1
2022/07/20 10:01:27.000   4313716.6599    452878.4835   4661057.2633   2  14   0.1029   0.0858   0.0758  -0.0225  -0.0284   0.0771   2.01    1.1
2022/07/20 10:01:28.000   4313716.6627    452878.4772   4661057.2590   2  13   0.1025   0.0855   0.0756  -0.0223  -0.0283   0.0767   3.01    1.0
2022/07/20 10:01:29.000   4313716.6668    452878.4721   4661057.2407   2  13   0.1018   0.0852   0.0750  -0.0224  -0.0282   0.0762   2.01    1.0
2022/07/20 10:01:30.000   4313716.6694    452878.4635   4661057.2227   2  14   0.1014   0.0848   0.0746  -0.0223  -0.0280   0.0759   3.01    1.1
2022/07/20 10:01:31.000   4313716.6662    452878.4520   4661057.2154   2  14   0.1010   0.0846   0.0744  -0.0222  -0.0280   0.0756   4.01    1.0
2022/07/20 10:01:32.000   4313716.6630    452878.4428   4661057.2045   2  13   0.1007   0.0844   0.0742  -0.0219  -0.0278   0.0754   5.01    1.1
2022/07/20 10:01:33.000   4313716.6611    452878.4341   4661057.1932   2  13   0.1005   0.0842   0.0742  -0.0218  -0.0276   0.0752   6.01    1.3
2022/07/20 10:01:34.000   4313716.6704    452878.4251   4661057.1881   2  13   0.0995   0.0837   0.0731  -0.0222  -0.0277   0.0745   2.01    1.2
2022/07/20 10:01:35.000   4313716.6740    452878.4195   4661057.1553   2  13   0.0989   0.0833   0.0727  -0.0222  -0.0276   0.0741   2.01    1.1
2022/07/20 10:01:36.000   4313716.6818    452878.4091   4661057.1561   2  13   0.0984   0.0830   0.0722  -0.0221  -0.0275   0.0737   2.01    1.2
2022/07/20 10:01:37.000   4313716.6868    452878.3998   4661057.1503   2  13   0.0979   0.0827   0.0719  -0.0220  -0.0274   0.0734   3.01    1.1
2022/07/20 10:01:38.000   4313716.6851    452878.3897   4661057.1302   2  12   0.0976   0.0825   0.0724  -0.0219  -0.0274   0.0729   4.01    1.4
2022/07/20 10:01:39.000   4313716.6928    452878.3830   4661057.1137   2  12   0.0969   0.0820   0.0717  -0.0220  -0.0274   0.0725   2.01    1.1
2022/07/20 10:01:40.000   4313716.7024    452878.3750   4661057.0947   2  13   0.0963   0.0817   0.0712  -0.0221  -0.0273   0.0721   2.01    1.1
2022/07/20 10:01:41.000   4313716.7071    452878.3640   4661057.1009   2  13   0.0958   0.0814   0.0707  -0.0220  -0.0273   0.0716   2.01    1.2
2022/07/20 10:01:42.000   4313716.7072    452878.3556   4661057.1044   2  13   0.0954   0.0811   0.0704  -0.0219  -0.0272   0.0713   3.01    1.1
2022/07/20 10:01:43.000   4313716.7122    452878.3506   4661057.0924   2  13   0.0947   0.0807   0.0699  -0.0220  -0.0271   0.0709   2.01    1.1
2022/07/20 10:01:44.000   4313716.7137    452878.3469   4661057.0786   2  13   0.0942   0.0804   0.0694  -0.0220  -0.0270   0.0705   2.01    1.0
2022/07/20 10:01:45.000   4313716.7168    452878.3423   4661057.0622   2  14   0.0937   0.0801   0.0690  -0.0220  -0.0269   0.0701   2.01    1.0
2022/07/20 10:01:46.000   4313716.7162    452878.3324   4661057.0461   2  14   0.0931   0.0798   0.0684  -0.0221  -0.0268   0.0698   2.01    1.1
2022/07/20 10:01:47.000   4313716.7178    452878.3266   4661057.0318   2  14   0.0927   0.0795   0.0680  -0.0220  -0.0267   0.0695   3.01    1.1
2022/07/20 10:01:48.000   4313716.7191    452878.3182   4661057.0192   2  14   0.0921   0.0791   0.0675  -0.0220  -0.0266   0.0691   2.01    1.1
2022/07/20 10:01:49.000   4313716.7218    452878.3083   4661057.0092   2  15   0.0916   0.0788   0.0670  -0.0220  -0.0265   0.0687   2.01    1.0
2022/07/20 10:01:50.000   4313716.7256    452878.2972   4661056.9955   2  15   0.0911   0.0785   0.0666  -0.0220  -0.0264   0.0683   2.01    1.0
2022/07/20 10:01:51.000   4313716.7331    452878.2893   4661056.9946   2  15   0.0907   0.0782   0.0663  -0.0219  -0.0263   0.0680   3.01    1.0
2022/07/20 10:01:52.000   4313716.7370    452878.2811   4661056.9909   2  14   0.0906   0.0780   0.0663  -0.0217  -0.0261   0.0680   4.01    1.2
2022/07/20 10:01:53.000   4313716.7498    452878.2727   4661056.9809   2  14   0.0899   0.0776   0.0657  -0.0219  -0.0261   0.0675   2.01    1.2
2022/07/20 10:01:54.000   4313716.7607    452878.2667   4661056.9737   2  14   0.0894   0.0773   0.0653  -0.0219  -0.0260   0.0672   2.01    1.0
2022/07/20 10:01:55.000   4313716.7770    452878.2583   4661056.9670   2  14   0.0890   0.0770   0.0650  -0.0219  -0.0260   0.0669   2.01    1.1
2022/07/20 10:01:56.000   4313716.7809    452878.2464   4661056.9652   2  15   0.0886   0.0768   0.0648  -0.0218  -0.0259   0.0666   3.01    1.1
2022/07/20 10:01:57.000   4313716.7903    452878.2410   4661056.9524   2  15   0.0881   0.0764   0.0643  -0.0220  -0.0259   0.0662   2.01    1.1
2022/07/20 10:01:58.000   4313716.7993    452878.2352   4661056.9446   2  15   0.0876   0.0761   0.0640  -0.0220  -0.0258   0.0659   2.01    1.0
2022/07/20 10:01:59.000   4313716.8102    452878.2304   4661056.9348   2  15   0.0872   0.0758   0.0637  -0.0220  -0.0258   0.0656   2.01    1.1
2022/07/20 10:02:00.000   4313716.8164    452878.2257   4661056.9274   2  15   0.0868   0.0756   0.0635  -0.0219  -0.0256   0.0654   3.01    1.0
2022/07/20 10:02:01.000   4313716.8142    452878.2142   4661056.9194   2  15   0.0867   0.0754   0.0634  -0.0218  -0.0255   0.0652   4.01    1.0
2022/07/20 10:02:02.000   4313716.8182    452878.2058   4661056.9122   2  15   0.0860   0.0750   0.0628  -0.0220  -0.0256   0.0648   2.01    1.0
2022/07/20 10:02:03.000   4313716.8305    452878.2020   4661056.9072   2  15   0.0855   0.0747   0.0625  -0.0220  -0.0255   0.0644   2.01    1.0
2022/07/20 10:02:04.000   4313716.8420    452878.1978   4661056.9018   2  15   0.0851   0.0744   0.0622  -0.0220  -0.0254   0.0641   2.01    1.0
2022/07/20 10:02:05.000   4313716.8483    452878.1964   4661056.8960   2  15   0.0848   0.0742   0.0620  -0.0220  -0.0253   0.0639   3.01    1.0
2022/07/20 10:02:06.000   4313716.8593    452878.1933   4661056.8855   2  15   0.0843   0.0739   0.0616  -0.0221  -0.0253   0.0635   2.01    1.0
2022/07/20 10:02:07.000   4313716.8661    452878.1881   4661056.8810   2  15   0.0838   0.0736   0.0613  -0.0221  -0.0253   0.0632   2.01    1.1
2022/07/20 10:02:08.000   4313716.8734    452878.1812   4661056.8771   2  15   0.0834   0.0733   0.0609  -0.0221  -0.0252   0.0629   2.01    1.0
2022/07/20 10:02:09.000   4313716.8818    452878.1759   4661056.8759   2  15   0.0830   0.0730   0.0606  -0.0221  -0.0252   0.0626   2.01    1.2
2022/07/20 10:02:10.000   4313716.8930    452878.1708   4661056.8671   2  15   0.0827   0.0728   0.0605  -0.0220  -0.0251   0.0624   3.01    1.1
2022/07/20 10:02:11.000   4313716.8982    452878.1682   4661056.8642   2  15   0.0822   0.0725   0.0601  -0.0221  -0.0251   0.0620   2.01    1.1
2022/07/20 10:02:12.000   4313716.9064    452878.1630   4661056.8561   2  15   0.0817   0.0722   0.0598  -0.0221  -0.0250   0.0617   2.01    1.1
2022/07/20 10:02:13.000   4313716.9169    452878.1579   4661056.8510   2  15   0.0813   0.0719   0.0595  -0.0221  -0.0250   0.0614   2.01    1.1
2022/07/20 10:02:14.000   4313716.9194    452878.1524   4661056.8490   2  15   0.0810   0.0717   0.0593  -0.0221  -0.0249   0.0612   3.01    1.1
2022/07/20 10:02:15.000   4313716.9175    452878.1427   4661056.8508   2  16   0.0808   0.0715   0.0592  -0.0220  -0.0248   0.0611   4.01    1.1
2022/07/20 10:02:16.000   4313716.9236    452878.1339   4661056.8564   2  16   0.0802   0.0712   0.0586  -0.0221  -0.0248   0.0606   2.01    1.0
2022/07/20 10:02:17.000   4313716.9303    452878.1294   4661056.8542   2  16   0.0798   0.0709   0.0582  -0.0221  -0.0247   0.0604   2.01    1.0
2022/07/20 10:02:18.000   4313716.9373    452878.1212   4661056.8586   2  16   0.0794   0.0706   0.0579  -0.0222  -0.0247   0.0601   2.01    1.1
2022/07/20 10:02:19.000   4313716.9464    452878.1121   4661056.8571   2  16   0.0791   0.0704   0.0577  -0.0221  -0.0246   0.0599   3.01    1.1
2022/07/20 10:02:20.000   4313716.9513    452878.1047   4661056.8639   2  16   0.0789   0.0703   0.0578  -0.0220  -0.0245   0.0597   4.01    1.1
2022/07/20 10:02:21.000   4313716.9613    452878.1030   4661056.8628   2  16   0.0783   0.0699   0.0572  -0.0222  -0.0245   0.0593   2.01    1.1
2022/07/20 10:02:22.000   4313716.9661    452878.0941   4661056.8572   2  16   0.0779   0.0697   0.0569  -0.0222  -0.0245   0.0590   2.01    1.2
2022/07/20 10:02:23.000   4313716.9683    452878.0868   4661056.8521   2  16   0.0775   0.0694   0.0566  -0.0222  -0.0244   0.0587   2.01    1.1
2022/07/20 10:02:24.000   4313716.9724    452878.0796   4661056.8571   2  16   0.0773   0.0692   0.0564  -0.0221  -0.0243   0.0585   3.01    1.1
2022/07/20 10:02:25.000   4313716.9710    452878.0712   4661056.8577   2  16   0.0771   0.0690   0.0563  -0.0220  -0.0243   0.0584   4.01    1.2
2022/07/20 10:02:26.000   4313716.9759    452878.0643   4661056.8609   2  16   0.0770   0.0689   0.0563  -0.0219  -0.0242   0.0583   5.01    1.1
2022/07/20 10:02:27.000   4313716.9797    452878.0610   4661056.8562   2  16   0.0769   0.0688   0.0563  -0.0218  -0.0241   0.0582   6.01    1.2
2022/07/20 10:02:28.000   4313716.9799    452878.0568   4661056.8576   2  16   0.0768   0.0687   0.0563  -0.0217  -0.0240   0.0582   7.01    1.3
2022/07/20 10:02:29.000   4313716.9784    452878.0481   4661056.8615   2  15   0.0770   0.0686   0.0566  -0.0213  -0.0236   0.0583   8.01    1.1
2022/07/20 10:02:30.000   4313716.9779    452878.0439   4661056.8622   2  15   0.0770   0.0686   0.0567  -0.0211  -0.0235   0.0583   9.01    1.1
2022/07/20 10:02:31.000   4313716.9781    452878.0386   4661056.8678   2  15   0.0771   0.0686   0.0569  -0.0209  -0.0233   0.0584  10.01    1.2
2022/07/20 10:02:32.000   4313716.9791    452878.0333   4661056.8625   2  15   0.0772   0.0685   0.0571  -0.0207  -0.0232   0.0584  11.01    1.1
2022/07/20 10:02:33.000   4313716.9724    452878.0294   4661056.8639   2  15   0.0773   0.0685   0.0573  -0.0205  -0.0230   0.0585  12.01    1.1
2022/07/20 10:02:34.000   4313716.9765    452878.0180   4661056.8701   2  15   0.0751   0.0676   0.0548  -0.0218  -0.0239   0.0568   2.01    1.1
2022/07/20 10:02:35.000   4313716.9840    452878.0059   4661056.8629   2  15   0.0747   0.0673   0.0545  -0.0218  -0.0238   0.0566   2.01    1.1
2022/07/20 10:02:36.000   4313716.9914    452877.9925   4661056.8668   2  15   0.0742   0.0671   0.0542  -0.0218  -0.0238   0.0562   2.01    1.2
2022/07/20 10:02:37.000   4313716.9939    452877.9835   4661056.8576   2  15   0.0738   0.0668   0.0539  -0.0219  -0.0238   0.0559   2.01    1.2
2022/07/20 10:02:38.000   4313716.9958    452877.9758   4661056.8490   2  15   0.0736   0.0666   0.0538  -0.0218  -0.0236   0.0557   3.01    1.2
2022/07/20 10:02:39.000   4313716.9937    452877.9649   4661056.8471   2  15   0.0731   0.0663   0.0533  -0.0219  -0.0237   0.0554   2.01    1.2
2022/07/20 10:02:40.000   4313716.9977    452877.9557   4661056.8456   2  15   0.0727   0.0661   0.0530  -0.0220  -0.0237   0.0551   2.01    1.2
2022/07/20 10:02:41.000   4313717.0013    452877.9456   4661056.8382   2  15   0.0722   0.0658   0.0528  -0.0220  -0.0236   0.0548   2.01    1.2
2022/07/20 10:02:42.000   4313717.0022    452877.9350   4661056.8369   2  15   0.0720   0.0656   0.0526  -0.0219  -0.0235   0.0546   3.01    1.3
2022/07/20 10:02:43.000   4313717.0029    452877.9256   4661056.8306   2  15   0.0718   0.0655   0.0526  -0.0218  -0.0234   0.0545   4.01    1.3
2022/07/20 10:02:44.000   4313717.0043    452877.9176   4661056.8380   2  15   0.0712   0.0652   0.0520  -0.0220  -0.0235   0.0540   2.01    2.2
2022/07/20 10:02:45.000   4313717.0079    452877.9066   4661056.8298   2  15   0.0708   0.0649   0.0517  -0.0220  -0.0234   0.0537   2.01    2.3
2022/07/20 10:02:46.000   4313717.0091    452877.9001   4661056.8259   2  15   0.0704   0.0646   0.0515  -0.0220  -0.0234   0.0534   2.01    2.2
2022/07/20 10:02:47.000   4313717.0114    452877.8930   4661056.8202   2  15   0.0702   0.0645   0.0513  -0.0220  -0.0233   0.0532   3.01    2.4
2022/07/20 10:02:48.000   4313717.8715    452877.2820   4661057.3691   1  14   0.0103   0.0053   0.0094   0.0045   0.0035   0.0076   2.01    4.3
2022/07/20 10:02:49.000   4313717.8706    452877.2811   4661057.3741   1  14   0.0102   0.0055   0.0094   0.0045   0.0036   0.0075   2.01    4.3
2022/07/20 10:02:50.000   4313717.8693    452877.2813   4661057.3740   1  14   0.0104   0.0055   0.0094   0.0044   0.0035   0.0076   2.01    4.4
2022/07/20 10:02:51.000   4313717.8738    452877.2816   4661057.3694   1  14   0.0110   0.0057   0.0100   0.0047   0.0039   0.0082   3.01    4.4
2022/07/20 10:02:52.000   4313717.8706    452877.2816   4661057.3716   1  14   0.0117   0.0063   0.0108   0.0052   0.0042   0.0088   4.01    4.4
2022/07/20 10:02:53.000   4313717.8765    452877.2818   4661057.3725   1  15   0.0104   0.0056   0.0094   0.0045   0.0033   0.0076   2.01    4.4
2022/07/20 10:02:54.000   4313717.9920    452877.3349   4661057.4527   1  15   0.0102   0.0052   0.0092   0.0044   0.0033   0.0075   2.01    4.4
2022/07/20 10:02:55.000   4313717.9902    452877.3344   4661057.4508   1  15   0.0101   0.0056   0.0094   0.0040   0.0032   0.0073   2.01    4.4
2022/07/20 10:02:56.000   4313717.9735    452877.3251   4661057.4414   1  15   0.0108   0.0058   0.0098   0.0045   0.0038   0.0080   3.01    4.4
2022/07/20 10:02:57.000   4313717.9472    452877.3125   4661057.4220   1  15   0.0101   0.0053   0.0092   0.0041   0.0029   0.0074   2.01    4.4
2022/07/20 10:02:58.000   4313717.9360    452877.3084   4661057.4149   1  15   0.0101   0.0053   0.0093   0.0043   0.0031   0.0074   2.01    4.4
2022/07/20 10:02:59.000   4313717.9292    452877.3049   4661057.4157   1  15   0.0102   0.0053   0.0096   0.0041   0.0032   0.0076   2.01    6.1
2022/07/20 10:03:00.000   4313717.9212    452877.3022   4661057.4124   1  15   0.0101   0.0056   0.0095   0.0042   0.0031   0.0074   2.01    6.2
2022/07/20 10:03:01.000   4313717.8744    452877.2820   4661057.3785   1  15   0.0111   0.0059   0.0104   0.0048   0.0038   0.0084   3.01    6.2
2022/07/20 10:03:02.000   4313717.8791    452877.2791   4661057.3737   1  15   0.0102   0.0054   0.0095   0.0042   0.0032   0.0076   2.01    6.2
2022/07/20 10:03:03.000   4313717.8786    452877.2824   4661057.3772   1  15   0.0102   0.0052   0.0094   0.0044   0.0032   0.0075   2.01    6.2
2022/07/20 10:03:04.000   4313717.8787    452877.2812   4661057.3723   1  15   0.0101   0.0054   0.0094   0.0044   0.0032   0.0074   2.01    6.2
2022/07/20 10:03:05.000   4313717.8770    452877.2808   4661057.3765   1  15   0.0107   0.0057   0.0100   0.0045   0.0035   0.0079   3.01    6.2
2022/07/20 10:03:06.000   4313717.8812    452877.2805   4661057.3723   1  15   0.0115   0.0062   0.0106   0.0050   0.0038   0.0086   4.01    6.2
2022/07/20 10:03:07.000   4313717.8789    452877.2815   4661057.3732   1  15   0.0101   0.0053   0.0093   0.0043   0.0032   0.0074   2.01    6.2
2022/07/20 10:03:08.000   4313717.8796    452877.2824   4661057.3790   1  15   0.0101   0.0055   0.0093   0.0042   0.0032   0.0074   2.01    6.2
2022/07/20 10:03:09.000   4313717.8786    452877.2839   4661057.3746   1  15   0.0100   0.0054   0.0093   0.0041   0.0033   0.0074   2.01    6.3
2022/07/20 10:03:10.000   4313717.8791    452877.2837   4661057.3788   1  15   0.0106   0.0058   0.0099   0.0044   0.0035   0.0079   3.01    6.3
2022/07/20 10:03:11.000   4313717.8793    452877.2830   4661057.3806   1  15   0.0099   0.0055   0.0094   0.0041   0.0031   0.0074   2.01    6.3
2022/07/20 10:03:12.000   4313717.8801    452877.2842   4661057.3884   1  15   0.0101   0.0052   0.0093   0.0040   0.0032   0.0073   2.01    6.2
2022/07/20 10:03:13.000   4313717.8795    452877.2819   4661057.3826   1  15   0.0102   0.0054   0.0093   0.0041   0.0030   0.0073   2.01    6.2
2022/07/20 10:03:14.000   4313717.8843    452877.2819   4661057.3878   1  15   0.0100   0.0053   0.0093   0.0042   0.0034   0.0074   2.01    6.2
2022/07/20 10:03:15.000   4313717.8847    452877.2826   4661057.3845   1  15   0.0107   0.0058   0.0099   0.0045   0.0033   0.0078   3.01    6.2
2022/07/20 10:03:16.000   4313717.8850    452877.2851   4661057.3850   1  15   0.0101   0.0055   0.0093   0.0040   0.0032   0.0074   2.01    6.2
2022/07/20 10:03:17.000   4313717.8844    452877.2860   4661057.3826   1  15   0.0100   0.0055   0.0092   0.0042   0.0030   0.0074   2.01    6.2
2022/07/20 10:03:18.000   4313717.8826    452877.2858   4661057.3889   1  15   0.0099   0.0055   0.0091   0.0042   0.0032   0.0075   2.01    6.2
2022/07/20 10:03:19.000   4313717.8847    452877.2863   4661057.3865   1  15   0.0106   0.0056   0.0098   0.0044   0.0036   0.0078   3.01    6.1
2022/07/20 10:03:20.000   4313717.8851    452877.2855   4661057.3842   1  15   0.0113   0.0063   0.0106   0.0048   0.0039   0.0085   4.01    6.1
2022/07/20 10:03:21.000   4313717.8869    452877.2863   4661057.3879   1  15   0.0100   0.0054   0.0092   0.0041   0.0032   0.0074   2.01    6.1
2022/07/20 10:03:22.000   4313717.8854    452877.2888   4661057.3882   1  15   0.0101   0.0052   0.0093   0.0042   0.0034   0.0073   2.01    6.1
2022/07/20 10:03:23.000   4313717.8878    452877.2864   4661057.3900   1  15   0.0100   0.0054   0.0092   0.0041   0.0033   0.0073   2.01    6.1
2022/07/20 10:03:24.000   4313717.8840    452877.2866   4661057.3851   1  15   0.0106   0.0058   0.0099   0.0044   0.0035   0.0079   3.01    6.0
2022/07/20 10:03:25.000   4313717.8830    452877.2883   4661057.3842   1  15   0.0113   0.0064   0.0106   0.0049   0.0039   0.0085   4.01    6.0
2022/07/20 10:03:26.000   4313717.8848    452877.2923   4661057.3824   1  15   0.0122   0.0067   0.0115   0.0052   0.0044   0.0092   5.01    6.0
2022/07/20 10:03:27.000   4313717.8871    452877.2928   4661057.3822   1  15   0.0131   0.0072   0.0124   0.0058   0.0047   0.0099   6.01    6.0
2022/07/20 10:03:28.000   4313717.8875    452877.2896   4661057.3890   1  15   0.0100   0.0053   0.0093   0.0041   0.0033   0.0073   2.01    5.9
2022/07/20 10:03:29.000   4313717.8885    452877.2890   4661057.3862   1  15   0.0107   0.0057   0.0099   0.0044   0.0034   0.0078   3.01    5.9
2022/07/20 10:03:30.000   4313717.8886    452877.2909   4661057.3881   1  15   0.0113   0.0062   0.0106   0.0050   0.0039   0.0085   4.01    5.9
2022/07/20 10:03:31.000   4313717.8862    452877.2905   4661057.3866   1  15   0.0122   0.0068   0.0115   0.0052   0.0041   0.0092   5.01    5.8
2022/07/20 10:03:32.000   4313717.8861    452877.2925   4661057.3828   1  15   0.0131   0.0073   0.0124   0.0057   0.0048   0.0099   6.01    5.8
2022/07/20 10:03:33.000   4313717.8928    452877.2932   4661057.3801   1  14   0.0147   0.0081   0.0137   0.0069   0.0058   0.0113   7.01    5.8
2022/07/20 10:03:34.000   4313717.8883    452877.2876   4661057.3945   1  14   0.0103   0.0055   0.0094   0.0042   0.0034   0.0075   2.01    5.7
2022/07/20 10:03:35.000   4313717.8902    452877.2885   4661057.4035   1  14   0.0102   0.0053   0.0094   0.0045   0.0034   0.0076   2.01    5.6
2022/07/20 10:03:36.000   4313717.8902    452877.2857   4661057.4003   1  14   0.0104   0.0055   0.0095   0.0044   0.0035   0.0075   2.01    5.6
2022/07/20 10:03:37.000   4313717.8935    452877.2857   4661057.4030   1  14   0.0103   0.0054   0.0093   0.0045   0.0035   0.0076   2.01    5.5
2022/07/20 10:03:38.000   4313717.8954    452877.2871   4661057.4068   1  14   0.0110   0.0057   0.0100   0.0048   0.0038   0.0081   3.01    5.5
2022/07/20 10:03:39.000   4313717.8947    452877.2885   4661057.4069   1  14   0.0103   0.0053   0.0093   0.0046   0.0034   0.0076   2.01    5.4
2022/07/20 10:03:40.000   4313717.8944    452877.2857   4661057.4013   1  14   0.0103   0.0053   0.0094   0.0044   0.0035   0.0076   2.01    5.4
2022/07/20 10:03:41.000   4313717.8954    452877.2857   4661057.4011   1  14   0.0104   0.0055   0.0095   0.0044   0.0035   0.0075   2.01    5.3
2022/07/20 10:03:42.000   4313717.8973    452877.2859   4661057.4001   1  14   0.0109   0.0060   0.0100   0.0047   0.0038   0.0081   3.01    5.2
2022/07/20 10:03:43.000   4313717.8952    452877.2853   4661057.3964   1  14   0.0118   0.0065   0.0107   0.0053   0.0041   0.0089   4.01    5.2
2022/07/20 10:03:44.000   4313717.8910    452877.2859   4661057.4004   1  14   0.0126   0.0070   0.0117   0.0058   0.0046   0.0096   5.01    5.2
2022/07/20 10:03:45.000   4313717.8979    452877.2864   4661057.4002   1  14   0.0139   0.0076   0.0134   0.0062   0.0049   0.0109   6.01    5.1
2022/07/20 10:03:46.000   4313717.8973    452877.2862   4661057.4029   1  14   0.0149   0.0083   0.0145   0.0068   0.0055   0.0118   7.01    5.0
2022/07/20 10:03:47.000   4313717.8963    452877.2842   4661057.4021   1  14   0.0159   0.0089   0.0152   0.0075   0.0061   0.0125   8.01    5.0
2022/07/20 10:03:48.000   4313717.8970    452877.2849   4661057.3992   1  14   0.0170   0.0096   0.0161   0.0081   0.0067   0.0133   9.01    5.0
2022/07/20 10:03:49.000   4313717.8982    452877.2890   4661057.3975   1  14   0.0103   0.0051   0.0098   0.0043   0.0033   0.0078   2.01    4.9
2022/07/20 10:03:50.000   4313717.8966    452877.2899   4661057.3906   1  14   0.0104   0.0056   0.0095   0.0043   0.0037   0.0077   2.01    4.9
2022/07/20 10:03:51.000   4313717.8971    452877.2890   4661057.4048   1  14   0.0102   0.0056   0.0095   0.0044   0.0034   0.0077   2.01    4.8
2022/07/20 10:03:52.000   4313717.8968    452877.2893   4661057.3971   1  14   0.0110   0.0057   0.0101   0.0046   0.0038   0.0082   3.01    4.8
2022/07/20 10:03:53.000   4313717.8922    452877.2886   4661057.3946   1  14   0.0103   0.0056   0.0094   0.0045   0.0035   0.0076   2.01    4.7
2022/07/20 10:03:54.000   4313717.8932    452877.2870   4661057.3988   1  14   0.0102   0.0057   0.0094   0.0045   0.0035   0.0076   2.01    4.6
2022/07/20 10:03:55.000   4313717.8906    452877.2858   4661057.4004   1  14   0.0103   0.0054   0.0094   0.0044   0.0034   0.0076   2.01    4.5
2022/07/20 10:03:56.000   4313717.8931    452877.2862   4661057.3964   1  14   0.0110   0.0059   0.0101   0.0047   0.0038   0.0082   3.01    4.5
2022/07/20 10:03:57.000   4313717.8901    452877.2866   4661057.3902   1  13   0.0119   0.0063   0.0113   0.0053   0.0041   0.0091   4.01    4.4
2022/07/20 10:03:58.000   4313717.8930    452877.2857   4661057.3938   1  13   0.0103   0.0054   0.0098   0.0044   0.0033   0.0078   2.01    4.4
2022/07/20 10:03:59.000   4313717.8950    452877.2862   4661057.4013   1  13   0.0103   0.0056   0.0098   0.0045   0.0033   0.0078   2.01    4.3
2022/07/20 10:04:00.000   4313717.8922    452877.2870   4661057.3975   1  13   0.0104   0.0056   0.0098   0.0044   0.0034   0.0077   2.01    4.3
2022/07/20 10:04:01.000   4313717.8903    452877.2853   4661057.4055   1  13   0.0110   0.0058   0.0104   0.0047   0.0037   0.0084   3.01    4.2
2022/07/20 10:04:02.000   4313717.8801    452877.2866   4661057.3844   1  13   0.0103   0.0056   0.0097   0.0045   0.0034   0.0078   2.01    4.2
2022/07/20 10:04:03.000   4313717.8831    452877.2894   4661057.3821   1  13   0.0104   0.0055   0.0098   0.0043   0.0034   0.0078   2.01    4.1
2022/07/20 10:04:04.000   4313717.8831    452877.2897   4661057.3866   1  13   0.0104   0.0055   0.0097   0.0044   0.0033   0.0078   2.01    4.0
2022/07/20 10:04:05.000   4313717.8829    452877.2880   4661057.3866   1  13   0.0104   0.0053   0.0096   0.0043   0.0032   0.0079   2.01    4.0
2022/07/20 10:04:06.000   4313717.8806    452877.2871   4661057.3797   1  13   0.0110   0.0059   0.0105   0.0048   0.0036   0.0084   3.01    3.9
2022/07/20 10:04:07.000   4313717.8804    452877.2864   4661057.3880   1  12   0.0106   0.0055   0.0114   0.0044   0.0028   0.0077   2.01    3.6
2022/07/20 10:04:08.000   4313717.8825    452877.2881   4661057.3962   1  13   0.0105   0.0058   0.0111   0.0042   0.0024   0.0073   2.01    3.5
2022/07/20 10:04:09.000   4313717.8868    452877.2914   4661057.3898   1  13   0.0102   0.0052   0.0104   0.0042   0.0026   0.0075   2.01    3.5
2022/07/20 10:04:10.000   4313717.8828    452877.2922   4661057.3904   1  13   0.0109   0.0058   0.0109   0.0044   0.0029   0.0081   3.01    3.4
2022/07/20 10:04:11.000   4313717.8859    452877.2932   4661057.3890   1  13   0.0117   0.0061   0.0118   0.0047   0.0034   0.0089   4.01    3.4
2022/07/20 10:04:12.000   4313717.0168    452877.5966   4661056.5826   2  13   0.0481   0.0493   0.0369  -0.0211  -0.0205   0.0365   2.01    2.6
2022/07/20 10:04:13.000   4313717.0148    452877.5925   4661056.5770   2  13   0.0479   0.0491   0.0368  -0.0211  -0.0205   0.0364   2.01    1.1
2022/07/20 10:04:14.000   4313717.0158    452877.5921   4661056.5750   2  13   0.0477   0.0490   0.0363  -0.0211  -0.0205   0.0363   2.01    1.1
2022/07/20 10:04:15.000   4313717.0196    452877.5905   4661056.5722   2  13   0.0476   0.0489   0.0363  -0.0210  -0.0205   0.0363   3.01    1.1
2022/07/20 10:04:16.000   4313717.0146    452877.5919   4661056.5716   2  12   0.0477   0.0488   0.0370  -0.0209  -0.0205   0.0363   4.01    1.2
2022/07/20 10:04:17.000   4313717.0178    452877.5919   4661056.5720   2  12   0.0479   0.0488   0.0373  -0.0208  -0.0204   0.0364   5.01    1.1
2022/07/20 10:04:18.000   4313717.0199    452877.5923   4661056.5821   2  14   0.0481   0.0488   0.0376  -0.0207  -0.0204   0.0366   6.01    1.1
2022/07/20 10:04:19.000   4313717.0782    452877.5529   4661056.7607   2  15   0.0469   0.0484   0.0359  -0.0210  -0.0205   0.0357   2.01    1.1
2022/07/20 10:04:20.000   4313717.0632    452877.5639   4661056.6986   2  15   0.0469   0.0483   0.0358  -0.0210  -0.0205   0.0357   3.01    1.1
2022/07/20 10:04:21.000   4313717.0600    452877.5725   4661056.6774   2  15   0.0470   0.0483   0.0361  -0.0208  -0.0202   0.0360   4.01    1.1
2022/07/20 10:04:22.000   4313717.0509    452877.5741   4661056.6643   2  15   0.0471   0.0482   0.0362  -0.0208  -0.0202   0.0360   5.01    1.0
2022/07/20 10:04:23.000   4313717.0498    452877.5770   4661056.6658   2  15   0.0472   0.0482   0.0365  -0.0207  -0.0201   0.0361   6.01    1.0
2022/07/20 10:04:24.000   4313717.0470    452877.5799   4661056.6576   2  15   0.0474   0.0482   0.0367  -0.0206  -0.0200   0.0363   7.01    1.0
2022/07/20 10:04:25.000   4313717.0023    452877.5959   4661056.5880   2  15   0.0477   0.0483   0.0375  -0.0205  -0.0201   0.0367   8.01    1.0
2022/07/20 10:04:26.000   4313717.0000    452877.5930   4661056.5768   2  15   0.0461   0.0477   0.0351  -0.0210  -0.0203   0.0352   2.01    1.0
2022/07/20 10:04:27.000   4313716.9958    452877.5908   4661056.5641   2  15   0.0459   0.0476   0.0349  -0.0210  -0.0203   0.0351   2.01    1.0
2022/07/20 10:04:28.000   4313716.9950    452877.5887   4661056.5639   2  15   0.0457   0.0474   0.0347  -0.0210  -0.0203   0.0349   2.01    1.0
2022/07/20 10:04:29.000   4313716.9961    452877.5900   4661056.5387   2  15   0.0457   0.0473   0.0351  -0.0209  -0.0203   0.0348   3.01    1.1
2022/07/20 10:04:30.000   4313716.9901    452877.5904   4661056.5373   2  15   0.0453   0.0472   0.0346  -0.0210  -0.0203   0.0346   2.01    1.1
2022/07/20 10:04:31.000   4313716.9875    452877.5874   4661056.5322   2  15   0.0451   0.0470   0.0344  -0.0210  -0.0203   0.0345   2.01    1.1
2022/07/20 10:04:32.000   4313716.9879    452877.5874   4661056.5220   2  15   0.0449   0.0469   0.0342  -0.0210  -0.0202   0.0344   2.01    1.1
2022/07/20 10:04:33.000   4313716.9869    452877.5849   4661056.5151   2  15   0.0449   0.0468   0.0343  -0.0209  -0.0202   0.0344   3.01    1.1
2022/07/20 10:04:34.000   4313716.9836    452877.5836   4661056.5261   2  15   0.0450   0.0467   0.0344  -0.0208  -0.0201   0.0345   4.01    1.1
2022/07/20 10:04:35.000   4313716.9842    452877.5802   4661056.5142   2  15   0.0445   0.0465   0.0339  -0.0210  -0.0202   0.0341   2.01    1.1
2022/07/20 10:04:36.000   4313716.9818    452877.5806   4661056.5108   2  15   0.0443   0.0464   0.0337  -0.0210  -0.0202   0.0339   2.01    1.1
2022/07/20 10:04:37.000   4313716.9800    452877.5777   4661056.5011   2  15   0.0441   0.0462   0.0336  -0.0210  -0.0202   0.0338   2.01    1.1
2022/07/20 10:04:38.000   4313716.9773    452877.5795   4661056.4993   2  15   0.0441   0.0462   0.0337  -0.0209  -0.0201   0.0338   3.01    1.1
2022/07/20 10:04:39.000   4313716.9734    452877.5808   4661056.4987   2  15   0.0442   0.0461   0.0338  -0.0208  -0.0200   0.0339   4.01    1.2
2022/07/20 10:04:40.000   4313716.9730    452877.5821   4661056.4896   2  15   0.0437   0.0459   0.0333  -0.0209  -0.0201   0.0335   2.01    1.1
2022/07/20 10:04:41.000   4313716.9713    452877.5800   4661056.5012   2  15   0.0435   0.0457   0.0331  -0.0209  -0.0201   0.0334   2.01    1.2
2022/07/20 10:04:42.000   4313716.9683    452877.5768   4661056.4853   2  15   0.0434   0.0456   0.0330  -0.0209  -0.0201   0.0333   2.01    1.2
2022/07/20 10:04:42.999   4313716.9656    452877.5766   4661056.4857   2  15   0.0434   0.0455   0.0331  -0.0208  -0.0200   0.0333   3.01    1.2
2022/07/20 10:04:44.000   4313716.9598    452877.5696   4661056.4770   2  14   0.0431   0.0454   0.0329  -0.0208  -0.0199   0.0331   2.01    1.2
2022/07/20 10:04:45.000   4313716.9590    452877.5680   4661056.4774   2  15   0.0430   0.0452   0.0328  -0.0208  -0.0199   0.0330   2.01    1.0
2022/07/20 10:04:46.000   4313716.9635    452877.5687   4661056.4715   2  15   0.0427   0.0451   0.0326  -0.0208  -0.0199   0.0328   2.01    1.0
